
[
{"name":"Herford","lat":52.114,"lon":8.673},
{"name":"Bünde","lat":52.201,"lon":8.586},
{"name":"Löhne","lat":52.188,"lon":8.708},
{"name":"Vlotho","lat":52.165,"lon":8.859},
{"name":"Hiddenhausen","lat":52.166,"lon":8.619},
{"name":"Kirchlengern","lat":52.199,"lon":8.637},
{"name":"Rödinghausen","lat":52.240,"lon":8.480},
{"name":"Enger","lat":52.139,"lon":8.558},
{"name":"Spenge","lat":52.139,"lon":8.485}
]
